airport,airport_name,city,state,latitude,longitude,hub_classification,total_flights,average_delay,median_delay,cancellation_rate
ATL,Hartsfield-Jackson Atlanta International,Atlanta,GA,33.6407,-84.4277,Large Hub,2,4.0,4.0,0.0
ORD,Chicago O'Hare International,Chicago,IL,41.9742,-87.9073,Large Hub,2,54.0,54.0,0.0
DFW,Dallas Fort Worth International,Dallas,TX,32.8998,-97.0403,Large Hub,2,34.5,34.5,0.0
DEN,Denver International,Denver,CO,39.8561,-104.6737,Large Hub,1,19.0,19.0,0.0
LAX,Los Angeles International,Los Angeles,CA,33.9416,-118.4085,Large Hub,1,16.0,16.0,0.0
SFO,San Francisco International,San Francisco,CA,37.6213,-122.379,Large Hub,1,34.0,34.0,0.0
CLT,Charlotte Douglas International,Charlotte,NC,35.214,-80.9431,Large Hub,1,3.0,3.0,0.0
JFK,John F. Kennedy International,New York,NY,40.6413,-73.7781,Large Hub,2,30.5,30.5,50.0
